City_ID,City,Country,Lat,Lng,Max Temp,Min Temp,Humidity,Cloudiness,Wind Speed,Current Description,Rain (Inches),Snow (Inches),Date
0,Timmins,CA,48.47,-81.33,53.6,53.6,93,90,8.05,light rain,0.0,0.0,2020-05-29 15:51:19
1,Katsuura,JP,35.13,140.3,68.0,66.0,88,75,6.93,broken clouds,0.0,0.0,2020-05-29 15:51:19
2,Ushuaia,AR,-54.8,-68.3,44.6,44.6,56,75,9.17,broken clouds,0.0,0.0,2020-05-29 15:51:19
3,Daru,PG,-9.08,143.21,78.94,78.94,88,98,14.74,light rain,0.5,0.0,2020-05-29 15:51:19
4,Ketchikan,US,55.34,-131.65,55.4,51.8,71,40,13.87,scattered clouds,0.0,0.0,2020-05-29 15:50:04
5,Hermanus,ZA,-34.42,19.23,59.0,59.0,98,86,1.9,overcast clouds,0.0,0.0,2020-05-29 15:51:19
6,Kodiak,US,57.79,-152.41,50.0,50.0,66,90,4.7,overcast clouds,0.0,0.0,2020-05-29 15:51:19
7,Georgetown,MY,5.41,100.34,84.2,82.0,83,20,8.05,few clouds,0.0,0.0,2020-05-29 15:51:19
8,Chuy,UY,-33.7,-53.46,67.39,67.39,65,62,5.5,broken clouds,0.0,0.0,2020-05-29 15:51:20
9,Cherskiy,RU,68.75,161.3,42.53,42.53,64,0,8.46,clear sky,0.0,0.0,2020-05-29 15:51:20
10,Mugumu,TZ,-1.85,34.7,67.28,67.28,67,100,7.05,overcast clouds,0.0,0.0,2020-05-29 15:51:20
11,Sydney,AU,-33.87,151.21,55.4,50.0,93,40,6.93,scattered clouds,0.0,0.0,2020-05-29 15:50:03
12,Ladario,BR,-19.0,-57.6,82.4,82.4,48,82,9.17,broken clouds,0.0,0.0,2020-05-29 15:51:20
13,Saint-Philippe,RE,-21.36,55.77,73.4,61.0,78,38,6.93,scattered clouds,0.0,0.0,2020-05-29 15:51:20
14,Saint George,US,37.1,-113.58,84.99,78.8,22,1,2.21,clear sky,0.0,0.0,2020-05-29 15:50:55
15,Hilo,US,19.73,-155.09,71.6,66.99,78,90,5.82,overcast clouds,0.0,0.0,2020-05-29 15:51:20
16,Hambantota,LK,6.12,81.12,81.46,81.46,82,98,15.82,moderate rain,1.02,0.0,2020-05-29 15:41:23
17,Ancud,CL,-41.87,-73.82,44.6,39.0,87,0,10.29,clear sky,0.0,0.0,2020-05-29 15:51:20
18,Kaitangata,NZ,-46.28,169.85,46.99,46.99,72,2,5.86,clear sky,0.0,0.0,2020-05-29 15:51:21
19,Bredasdorp,ZA,-34.53,20.04,62.6,62.6,21,88,3.36,overcast clouds,0.0,0.0,2020-05-29 15:51:21
20,Rikitea,PF,-23.12,-134.97,74.91,74.91,79,2,10.69,clear sky,0.0,0.0,2020-05-29 15:51:21
21,Port Elizabeth,ZA,-33.92,25.57,60.8,60.8,77,94,17.22,overcast clouds,0.0,0.0,2020-05-29 15:50:04
22,New Norfolk,AU,-42.78,147.06,55.0,54.0,67,100,3.0,overcast clouds,0.0,0.0,2020-05-29 15:51:21
23,Bethel,US,41.37,-73.41,73.99,72.0,88,75,9.17,mist,0.0,0.0,2020-05-29 15:51:21
24,Salalah,OM,17.02,54.09,77.0,77.0,94,75,4.7,light rain,0.0,0.0,2020-05-29 15:51:21
25,Tuatapere,NZ,-46.13,167.68,44.85,44.85,87,5,3.74,clear sky,0.0,0.0,2020-05-29 15:51:21
26,Pevek,RU,69.7,170.31,37.0,37.0,79,94,8.66,overcast clouds,0.0,0.0,2020-05-29 15:51:21
27,Barrow,US,71.29,-156.79,30.2,30.2,86,1,6.93,clear sky,0.0,0.0,2020-05-29 15:51:22
28,Sao Joao Da Barra,BR,-21.64,-41.05,77.0,75.2,53,20,1.43,few clouds,0.0,0.0,2020-05-29 15:51:22
29,Port Alfred,ZA,-33.59,26.89,62.01,62.01,82,91,5.99,overcast clouds,0.0,0.0,2020-05-29 15:51:22
30,Dikson,RU,73.51,80.55,31.82,31.82,98,77,7.63,broken clouds,0.0,0.0,2020-05-29 15:51:22
31,Albany,US,42.6,-73.97,84.0,81.0,63,79,9.51,light rain,0.21,0.0,2020-05-29 15:51:22
32,Bengkulu,ID,-3.8,102.27,78.75,78.75,89,100,4.43,light rain,0.16,0.0,2020-05-29 15:51:22
33,Storforshei,NO,66.4,14.52,46.4,46.4,81,75,2.24,broken clouds,0.0,0.0,2020-05-29 15:51:22
34,Bonavista,CA,48.65,-53.11,51.35,51.35,85,97,13.47,overcast clouds,0.0,0.0,2020-05-29 15:48:51
35,Provideniya,RU,64.38,-173.3,34.99,34.99,94,100,5.86,overcast clouds,0.0,0.0,2020-05-29 15:51:23
36,Nikolskoye,RU,59.7,30.79,64.99,57.0,36,0,13.42,clear sky,0.0,0.0,2020-05-29 15:51:23
37,Dunmore,US,41.42,-75.63,82.4,75.2,58,75,10.29,broken clouds,0.0,0.0,2020-05-29 15:51:23
38,Ribeira Grande,PT,38.52,-28.7,68.0,68.0,68,75,12.75,broken clouds,0.0,0.0,2020-05-29 15:51:23
39,Vaini,TO,-21.2,-175.2,71.6,71.6,100,75,3.36,light intensity drizzle,0.0,0.0,2020-05-29 15:51:23
40,Punta Arenas,CL,-53.15,-70.92,42.8,42.01,75,40,11.41,scattered clouds,0.0,0.0,2020-05-29 15:48:05
41,Busselton,AU,-33.65,115.33,46.99,46.0,74,21,17.67,few clouds,0.0,0.0,2020-05-29 15:51:23
42,Tuktoyaktuk,CA,69.45,-133.04,30.2,30.2,92,90,11.41,mist,0.0,0.0,2020-05-29 15:51:23
43,Port Hardy,CA,50.7,-127.42,53.6,53.6,71,90,2.24,overcast clouds,0.0,0.0,2020-05-29 15:51:24
44,Te Anau,NZ,-45.42,167.72,41.05,41.05,86,8,0.78,clear sky,0.0,0.0,2020-05-29 15:50:17
45,Severo-Kurilsk,RU,50.68,156.12,37.09,37.09,81,60,6.82,broken clouds,0.0,0.0,2020-05-29 15:51:24
46,Souillac,MU,-20.52,57.52,75.2,75.2,78,40,10.29,scattered clouds,0.0,0.0,2020-05-29 15:51:24
47,Jamestown,US,42.1,-79.24,73.0,71.6,78,75,14.99,broken clouds,0.0,0.0,2020-05-29 15:48:17
48,Cape Town,ZA,-33.93,18.42,64.0,62.01,77,40,5.82,scattered clouds,0.0,0.0,2020-05-29 15:51:24
49,Itarema,BR,-2.92,-39.92,85.93,85.93,70,63,11.52,broken clouds,0.0,0.0,2020-05-29 15:51:24
50,Muros,ES,42.78,-9.06,90.0,75.0,73,32,8.99,scattered clouds,0.0,0.0,2020-05-29 15:51:24
51,Terrace,CA,54.52,-128.6,51.8,51.8,93,90,4.7,light intensity drizzle,0.0,0.0,2020-05-29 15:48:43
52,Koutiala,ML,12.39,-5.46,99.99,99.99,23,100,6.73,overcast clouds,0.0,0.0,2020-05-29 15:51:25
53,Buraydah,SA,26.33,43.98,105.8,105.8,15,0,6.93,clear sky,0.0,0.0,2020-05-29 15:48:42
54,Cheremshanka,RU,56.12,60.27,56.52,56.52,71,37,3.22,scattered clouds,0.0,0.0,2020-05-29 15:51:25
55,Ranipur,PK,27.29,68.51,96.8,96.8,39,40,11.41,dust,0.0,0.0,2020-05-29 15:51:25
56,Oktyabrskiy,RU,54.48,53.47,61.81,61.81,75,1,6.44,clear sky,0.0,0.0,2020-05-29 15:51:25
57,Abu Samrah,SY,35.3,37.18,68.07,68.07,49,0,16.35,clear sky,0.0,0.0,2020-05-29 15:51:25
58,Shitkino,RU,56.37,98.35,42.57,42.57,76,0,3.49,clear sky,0.0,0.0,2020-05-29 15:51:25
59,Chulym,RU,55.1,80.96,59.99,59.99,94,100,18.07,heavy intensity rain,7.01,0.0,2020-05-29 15:51:25
60,Bluff,NZ,-46.6,168.33,51.71,51.71,84,27,11.92,scattered clouds,0.0,0.0,2020-05-29 15:51:25
61,Kinshasa,CD,-4.32,15.32,82.4,82.4,74,40,3.36,scattered clouds,0.0,0.0,2020-05-29 15:49:43
62,Mar Del Plata,AR,-38.0,-57.56,63.0,57.99,87,90,6.93,overcast clouds,0.0,0.0,2020-05-29 15:51:26
63,Mataura,NZ,-46.19,168.86,41.13,41.13,94,17,2.21,few clouds,0.0,0.0,2020-05-29 15:51:26
64,Lavrentiya,RU,65.58,-171.0,32.88,32.88,94,32,2.73,scattered clouds,0.0,0.0,2020-05-29 15:51:26
65,Angoche,MZ,-16.23,39.91,75.83,75.83,86,2,8.28,clear sky,0.0,0.0,2020-05-29 15:48:18
66,Butaritari,KI,3.07,172.79,82.6,82.6,74,5,7.87,moderate rain,1.37,0.0,2020-05-29 15:51:26
67,Moranbah,AU,-22.0,148.05,57.25,57.25,65,0,9.17,clear sky,0.0,0.0,2020-05-29 15:51:26
68,Leua,SK,48.22,18.61,66.99,62.6,45,40,8.05,scattered clouds,0.0,0.0,2020-05-29 15:51:27
69,Grand-Lahou,CI,5.14,-5.02,84.15,84.15,74,34,8.9,scattered clouds,0.0,0.0,2020-05-29 15:51:27
70,Coihaique,CL,-45.58,-72.07,30.2,30.2,100,90,0.56,fog,0.0,0.0,2020-05-29 15:48:27
71,San Cristobal,VE,7.77,-72.22,91.4,91.4,41,40,23.04,scattered clouds,0.0,0.0,2020-05-29 15:51:27
72,Chokurdakh,RU,70.63,147.92,45.14,45.14,57,34,13.38,scattered clouds,0.0,0.0,2020-05-29 15:51:27
73,Acari,PE,-15.43,-74.62,76.69,76.69,48,1,7.94,clear sky,0.0,0.0,2020-05-29 15:51:27
74,Pokosnoye,RU,55.53,101.05,39.94,39.94,86,67,2.73,broken clouds,0.0,0.0,2020-05-29 15:51:27
75,Caibarien,CU,22.52,-79.47,86.0,86.0,66,75,11.41,broken clouds,0.0,0.0,2020-05-29 15:51:27
76,Jumla,NP,29.27,82.18,52.48,52.48,68,77,0.81,broken clouds,0.0,0.0,2020-05-29 15:51:28
77,Maragogi,BR,-9.01,-35.22,78.91,78.91,78,100,16.69,overcast clouds,0.0,0.0,2020-05-29 15:46:41
78,Bathsheba,BB,13.22,-59.52,87.8,87.8,62,40,20.8,scattered clouds,0.0,0.0,2020-05-29 15:41:29
79,Matara,LK,5.95,80.54,80.2,80.2,89,100,11.54,moderate rain,2.79,0.0,2020-05-29 15:51:28
80,Hondo,JP,32.45,130.2,69.01,69.01,77,16,8.99,few clouds,0.0,0.0,2020-05-29 15:51:28
81,Flinders,AU,-34.58,150.86,52.0,52.0,88,2,1.01,clear sky,0.0,0.0,2020-05-29 15:51:28
82,Puerto Ayora,EC,-0.74,-90.35,82.4,79.0,61,40,13.87,scattered clouds,0.0,0.0,2020-05-29 15:51:28
83,Yellowknife,CA,62.46,-114.35,36.0,33.8,64,20,3.36,few clouds,0.0,0.0,2020-05-29 15:51:28
84,Qaanaaq,GL,77.48,-69.36,32.34,32.34,90,48,2.53,scattered clouds,0.0,0.0,2020-05-29 15:51:28
85,Poum,NC,-20.23,164.02,75.65,75.65,80,26,12.77,scattered clouds,0.0,0.0,2020-05-29 15:51:29
86,Berlevag,NO,70.86,29.09,42.8,42.8,70,75,8.05,broken clouds,0.0,0.0,2020-05-29 15:51:29
87,Kavieng,PG,-2.57,150.8,82.13,82.13,72,100,5.3,overcast clouds,0.0,0.0,2020-05-29 15:51:29
88,Henderson,US,36.04,-114.98,91.4,87.8,11,1,4.7,clear sky,0.0,0.0,2020-05-29 15:51:29
89,Port Lincoln,AU,-34.73,135.87,61.66,61.66,49,0,23.29,clear sky,0.0,0.0,2020-05-29 15:51:29
90,Tasiilaq,GL,65.61,-37.64,37.4,37.4,93,75,4.7,fog,0.0,0.0,2020-05-29 15:51:29
91,Luba,GQ,3.46,8.55,82.4,82.4,94,40,10.29,scattered clouds,0.0,0.0,2020-05-29 15:51:29
92,Munger,IN,25.38,86.47,82.58,82.58,71,35,13.87,light rain,0.41,0.0,2020-05-29 15:51:30
93,Boundiali,CI,9.52,-6.49,93.36,93.36,41,100,6.89,overcast clouds,0.0,0.0,2020-05-29 15:51:30
94,Avarua,CK,-21.21,-159.78,78.8,78.8,94,49,4.7,scattered clouds,0.0,0.0,2020-05-29 15:51:30
95,Codrington,AU,-38.27,141.97,50.41,50.41,70,0,14.32,clear sky,0.0,0.0,2020-05-29 15:51:30
96,Asau,RO,46.43,26.4,55.99,55.99,67,91,5.82,light rain,0.69,0.0,2020-05-29 15:48:31
97,Luanda,AO,-8.84,13.23,78.8,78.8,83,29,4.7,scattered clouds,0.0,0.0,2020-05-29 15:47:28
98,Aklavik,CA,68.22,-135.01,37.4,37.4,71,40,12.75,scattered clouds,0.0,0.0,2020-05-29 15:51:30
99,Townsville,AU,-19.25,146.8,66.0,62.6,93,86,4.18,overcast clouds,0.0,0.0,2020-05-29 15:51:30
100,Alice Springs,AU,-23.7,133.88,48.2,48.2,42,0,7.45,clear sky,0.0,0.0,2020-05-29 15:49:16
101,Beringovskiy,RU,63.05,179.32,35.19,35.19,97,100,12.5,light rain,0.94,0.0,2020-05-29 15:51:31
102,Mezen,RU,65.85,44.24,49.96,49.96,54,76,7.45,broken clouds,0.0,0.0,2020-05-29 15:51:31
103,Belaya,UA,49.03,25.77,52.16,52.16,90,100,13.82,light rain,0.18,0.0,2020-05-29 15:51:31
104,Drovyanaya,RU,51.58,113.03,42.8,42.8,93,100,6.71,moderate rain,1.18,0.0,2020-05-29 15:51:31
105,Owasso,US,36.27,-95.85,73.99,73.0,53,1,5.82,clear sky,0.0,0.0,2020-05-29 15:49:31
106,Saint-Pierre,RE,-21.34,55.48,73.4,61.0,78,31,6.93,scattered clouds,0.0,0.0,2020-05-29 15:48:59
107,Airai,TL,-8.93,125.41,58.55,58.55,100,98,1.32,overcast clouds,0.0,0.0,2020-05-29 15:51:31
108,Victoria,HK,22.29,114.16,80.01,79.0,86,94,5.01,light rain,0.42,0.0,2020-05-29 15:50:25
109,Atuona,PF,-9.8,-139.03,81.23,81.23,74,4,17.22,clear sky,0.0,0.0,2020-05-29 15:51:32
110,Marsh Harbour,BS,26.54,-77.06,79.77,79.77,79,52,15.93,broken clouds,0.0,0.0,2020-05-29 15:48:21
111,Anadyr,RU,64.75,177.48,35.6,35.01,100,75,26.84,mist,0.0,0.0,2020-05-29 15:51:32
112,Sisimiut,GL,66.94,-53.67,35.47,35.47,82,39,13.33,scattered clouds,0.0,0.0,2020-05-29 15:49:40
113,Wagar,SD,16.15,36.2,104.52,104.52,9,35,14.9,scattered clouds,0.0,0.0,2020-05-29 15:51:32
114,Hue,VN,16.47,107.6,78.8,78.8,88,40,4.7,scattered clouds,0.0,0.0,2020-05-29 15:51:20
115,Puli,TW,23.97,120.97,80.01,77.0,88,75,6.93,broken clouds,0.0,0.0,2020-05-29 15:51:32
116,Bretcu,RO,46.05,26.3,55.99,52.0,84,99,1.99,moderate rain,1.04,0.0,2020-05-29 15:51:32
117,Calvinia,ZA,-31.47,19.78,57.92,57.92,66,73,4.05,broken clouds,0.0,0.0,2020-05-29 15:51:33
118,East London,ZA,-33.02,27.91,66.09,66.09,60,100,19.69,overcast clouds,0.0,0.0,2020-05-29 15:51:33
119,Paraiso,CR,9.84,-83.87,73.4,69.8,83,75,3.36,broken clouds,0.0,0.0,2020-05-29 15:51:33
120,Praia Da Vitoria,PT,38.73,-27.07,68.0,68.0,60,40,2.68,scattered clouds,0.0,0.0,2020-05-29 15:51:33
121,Fez,MA,34.04,-5.0,93.2,93.2,24,0,10.29,clear sky,0.0,0.0,2020-05-29 15:51:33
122,Castro,BR,-24.79,-50.01,68.47,68.47,48,0,5.68,clear sky,0.0,0.0,2020-05-29 15:48:57
123,Ouango,CF,4.31,22.56,76.26,76.26,87,100,5.01,overcast clouds,0.0,0.0,2020-05-29 15:51:33
124,Cabedelo,BR,-6.98,-34.83,75.2,75.2,100,75,12.75,broken clouds,0.0,0.0,2020-05-29 15:51:33
125,Torbay,CA,47.67,-52.73,80.01,77.0,57,75,13.87,broken clouds,0.0,0.0,2020-05-29 15:51:33
126,Hualmay,PE,-11.1,-77.61,71.65,71.65,68,2,10.58,clear sky,0.0,0.0,2020-05-29 15:48:40
127,Menomonie,US,44.88,-91.92,57.99,57.2,54,90,16.11,overcast clouds,0.0,0.0,2020-05-29 15:51:34
128,Goderich,CA,43.75,-81.72,75.0,55.99,94,97,3.0,light rain,0.69,0.0,2020-05-29 15:51:34
129,Haicheng,CN,40.85,122.75,61.39,61.39,58,86,8.48,overcast clouds,0.0,0.0,2020-05-29 15:51:34
130,Dingle,PH,11.0,122.67,79.81,79.81,79,76,4.38,broken clouds,0.0,0.0,2020-05-29 15:51:34
131,Altona,DE,53.55,9.93,71.6,69.8,30,3,6.93,clear sky,0.0,0.0,2020-05-29 15:51:34
132,Nanortalik,GL,60.14,-45.24,36.97,36.97,80,85,20.42,overcast clouds,0.0,0.0,2020-05-29 15:51:34
133,Lebu,CL,-37.62,-73.65,52.3,52.3,57,0,12.5,clear sky,0.0,0.0,2020-05-29 15:51:34
134,Padang,ID,-0.95,100.35,81.48,81.48,80,100,3.49,overcast clouds,0.0,0.0,2020-05-29 15:51:34
135,Itoman,JP,26.12,127.67,77.0,75.2,69,75,10.29,broken clouds,0.0,0.0,2020-05-29 15:48:39
136,Khatanga,RU,71.97,102.5,34.5,34.5,94,100,9.82,light snow,0.0,0.27,2020-05-29 15:51:35
137,Broome,US,42.25,-75.83,81.0,75.2,73,20,13.87,light rain,0.76,0.0,2020-05-29 15:49:42
138,Trofors,NO,65.53,13.41,48.2,48.0,81,75,4.7,broken clouds,0.0,0.0,2020-05-29 15:51:35
139,Acarau,BR,-2.89,-40.12,85.96,85.96,70,74,10.89,broken clouds,0.0,0.0,2020-05-29 15:51:35
140,Lihula,EE,58.68,23.85,57.0,57.0,60,0,15.01,clear sky,0.0,0.0,2020-05-29 15:51:35
141,Pangkalanbuun,ID,-2.68,111.62,76.3,76.3,87,0,3.06,clear sky,0.0,0.0,2020-05-29 15:51:35
142,Nuevo Progreso,MX,23.17,-97.95,86.02,86.02,60,97,10.36,moderate rain,1.79,0.0,2020-05-29 15:51:35
143,Sirajganj,BD,24.45,89.72,84.92,84.92,74,74,15.08,moderate rain,1.55,0.0,2020-05-29 15:51:36
144,Saskylakh,RU,71.92,114.08,33.98,33.98,88,61,3.94,broken clouds,0.0,0.0,2020-05-29 15:51:36
145,Port-Gentil,GA,-0.72,8.78,84.2,84.2,74,40,18.34,scattered clouds,0.0,0.0,2020-05-29 15:51:36
146,Carballo,ES,43.21,-8.69,90.0,66.99,69,15,8.05,few clouds,0.0,0.0,2020-05-29 15:51:36
147,Kapaa,US,22.08,-159.32,73.4,66.0,78,20,11.41,few clouds,0.0,0.0,2020-05-29 15:51:36
148,Leningradskiy,RU,69.38,178.42,36.34,36.34,82,79,8.39,broken clouds,0.0,0.0,2020-05-29 15:51:36
149,Wadsworth,US,41.03,-81.73,73.99,71.01,88,79,3.0,light rain,0.95,0.0,2020-05-29 15:51:23
150,Xining,CN,36.62,101.77,48.81,48.81,66,76,1.14,broken clouds,0.0,0.0,2020-05-29 15:51:36
151,Gwadar,PK,25.12,62.33,87.55,87.55,67,8,21.41,clear sky,0.0,0.0,2020-05-29 15:51:36
152,Doha,QA,25.29,51.53,95.0,91.4,49,0,5.82,clear sky,0.0,0.0,2020-05-29 15:51:16
153,Talakan,RU,50.32,130.37,61.61,61.61,57,80,6.87,broken clouds,0.0,0.0,2020-05-29 15:51:37
154,Umm Lajj,SA,25.02,37.27,81.05,81.05,59,43,16.64,scattered clouds,0.0,0.0,2020-05-29 15:51:37
155,Carutapera,BR,-1.2,-46.02,83.86,83.86,81,7,6.55,light rain,0.89,0.0,2020-05-29 15:48:34
156,Yangjiang,CN,21.85,111.97,80.2,80.2,90,99,5.01,overcast clouds,0.0,0.0,2020-05-29 15:51:37
157,Camacha,PT,33.08,-16.33,69.8,69.8,77,40,18.34,scattered clouds,0.0,0.0,2020-05-29 15:49:15
158,Nelson,NZ,-41.28,173.28,48.0,46.99,95,83,1.99,broken clouds,0.0,0.0,2020-05-29 15:51:37
159,Smithers,CA,54.78,-127.17,51.8,51.8,93,75,2.24,broken clouds,0.0,0.0,2020-05-29 15:48:27
160,Kawalu,ID,-7.38,108.21,74.64,74.64,91,99,0.89,overcast clouds,0.0,0.0,2020-05-29 15:51:37
161,Touros,BR,-5.2,-35.46,77.0,77.0,94,75,9.17,moderate rain,0.0,0.0,2020-05-29 15:50:31
162,Darnah,LY,32.77,22.64,68.09,68.09,60,0,11.59,clear sky,0.0,0.0,2020-05-29 15:51:38
163,Tual,ID,-5.67,132.75,81.03,81.03,83,90,14.81,light rain,0.91,0.0,2020-05-29 15:51:38
164,Lorengau,PG,-2.02,147.27,81.48,81.48,77,100,2.84,overcast clouds,0.0,0.0,2020-05-29 15:51:38
165,Newport,GB,51.59,-3.0,75.2,73.4,33,8,11.41,clear sky,0.0,0.0,2020-05-29 15:50:14
166,Okhotsk,RU,59.38,143.3,33.62,33.62,93,25,0.98,scattered clouds,0.0,0.0,2020-05-29 15:49:20
167,Lagoa,PT,39.05,-27.98,62.53,62.53,82,3,14.32,clear sky,0.0,0.0,2020-05-29 15:51:38
168,Pangnirtung,CA,66.15,-65.71,26.6,26.6,73,90,11.41,overcast clouds,0.0,0.0,2020-05-29 15:51:38
169,Kaa-Khem,RU,51.68,94.73,47.07,47.07,53,10,4.36,clear sky,0.0,0.0,2020-05-29 15:51:39
170,Talnakh,RU,69.49,88.4,46.4,46.4,61,19,8.95,few clouds,0.0,0.0,2020-05-29 15:51:39
171,Hobart,AU,-42.88,147.33,55.0,53.6,62,90,8.05,overcast clouds,0.0,0.0,2020-05-29 15:49:18
172,Mandalgovi,MN,45.76,106.27,38.77,38.77,74,1,13.38,clear sky,0.0,0.0,2020-05-29 15:51:39
173,Klaksvik,FO,62.23,-6.59,59.0,59.0,77,99,18.34,overcast clouds,0.0,0.0,2020-05-29 15:51:39
174,Ambagarh Chauki,IN,20.78,80.72,92.73,92.73,17,0,4.56,clear sky,0.0,0.0,2020-05-29 15:51:39
175,Papa,HU,47.33,17.47,66.2,66.2,42,40,18.34,scattered clouds,0.0,0.0,2020-05-29 15:51:39
176,Iskateley,RU,67.68,53.15,42.12,42.12,78,100,24.83,overcast clouds,0.0,0.0,2020-05-29 15:48:47
177,Nabire,ID,-3.37,135.48,76.75,76.75,84,100,2.26,overcast clouds,0.0,0.0,2020-05-29 15:51:39
178,Buala,SB,-8.14,159.59,81.34,81.34,78,79,4.09,broken clouds,0.0,0.0,2020-05-29 15:51:40
179,Havoysund,NO,71.0,24.66,42.8,41.0,87,40,19.46,shower rain,0.0,0.0,2020-05-29 15:51:40
180,Bafut,CM,6.08,10.1,73.33,73.33,86,100,1.66,moderate rain,1.73,0.0,2020-05-29 15:51:40
181,Esperance,AU,-33.87,121.9,53.6,53.6,81,90,19.46,overcast clouds,0.0,0.0,2020-05-29 15:51:40
182,Norman Wells,CA,65.28,-126.83,42.8,42.8,60,5,3.36,clear sky,0.0,0.0,2020-05-29 15:50:36
183,South Venice,US,27.05,-82.42,89.01,86.0,70,75,11.41,broken clouds,0.0,0.0,2020-05-29 15:51:40
184,Ikom,NG,5.97,8.71,84.45,84.45,73,87,2.89,overcast clouds,0.0,0.0,2020-05-29 15:51:41
185,Kimbe,PG,-5.55,150.14,75.87,75.87,87,58,4.21,broken clouds,0.0,0.0,2020-05-29 15:51:41
186,Yerkoy,TR,39.64,34.47,57.0,57.0,57,80,10.6,broken clouds,0.0,0.0,2020-05-29 15:51:41
187,Ixtapa,MX,20.7,-105.2,81.0,78.8,69,90,6.93,overcast clouds,0.0,0.0,2020-05-29 15:51:41
188,San Patricio,MX,19.22,-104.7,73.4,73.4,78,5,7.31,clear sky,0.0,0.0,2020-05-29 15:51:41
189,Kloulklubed,PW,7.04,134.26,78.8,78.8,88,75,7.72,broken clouds,0.0,0.0,2020-05-29 15:51:41
190,Onega,RU,63.91,38.14,53.2,53.2,46,18,3.13,few clouds,0.0,0.0,2020-05-29 15:51:41
191,Vardo,NO,70.37,31.11,48.2,42.8,66,75,17.22,broken clouds,0.0,0.0,2020-05-29 15:51:41
192,Adrar,MR,20.5,-10.07,104.61,104.61,8,1,1.9,clear sky,0.0,0.0,2020-05-29 15:48:18
193,Demba,CD,-5.51,22.27,84.67,84.67,47,87,3.0,overcast clouds,0.0,0.0,2020-05-29 15:51:42
194,Hithadhoo,MV,-0.6,73.08,83.91,83.91,80,100,16.04,light rain,0.36,0.0,2020-05-29 15:51:42
195,Honjo,JP,36.23,139.18,66.0,55.99,76,1,1.01,light rain,0.12,0.0,2020-05-29 15:51:42
196,Strathmore,CA,51.05,-113.39,60.01,60.01,60,59,4.0,broken clouds,0.0,0.0,2020-05-29 15:51:42
197,Mindelo,CV,16.89,-24.98,84.2,84.2,51,20,24.16,few clouds,0.0,0.0,2020-05-29 15:51:42
198,Naze,JP,28.37,129.48,69.8,69.8,94,18,3.36,few clouds,0.0,0.0,2020-05-29 15:51:42
199,Sitka,US,57.05,-135.33,51.8,51.8,71,40,6.93,scattered clouds,0.0,0.0,2020-05-29 15:51:43
200,Tabas,IR,33.6,56.92,100.4,100.4,10,0,6.93,clear sky,0.0,0.0,2020-05-29 15:51:43
201,Samarai,PG,-10.62,150.67,80.24,80.24,84,88,11.95,light rain,0.94,0.0,2020-05-29 15:48:58
202,Havelock,US,34.88,-76.9,82.4,78.01,74,75,11.41,broken clouds,0.0,0.0,2020-05-29 15:49:39
203,Kuching,MY,1.55,110.33,78.8,78.01,88,20,4.7,few clouds,0.0,0.0,2020-05-29 15:51:43
204,Iqaluit,CA,63.75,-68.51,24.8,24.01,73,75,4.7,broken clouds,0.0,0.0,2020-05-29 15:51:43
205,Hokitika,NZ,-42.72,170.97,48.43,48.43,70,4,5.68,clear sky,0.0,0.0,2020-05-29 15:51:43
206,Vao,NC,-22.67,167.48,75.2,75.2,79,83,15.5,broken clouds,0.0,0.0,2020-05-29 15:51:43
207,Blantyre,MW,-15.79,35.01,68.25,68.25,79,7,4.61,light rain,0.61,0.0,2020-05-29 15:48:24
208,Sistranda,NO,63.73,8.83,53.6,53.6,66,75,11.41,broken clouds,0.0,0.0,2020-05-29 15:50:54
209,Omsukchan,RU,62.53,155.8,25.63,25.63,93,0,5.7,clear sky,0.0,0.0,2020-05-29 15:51:44
210,Carnarvon,AU,-24.87,113.63,68.54,68.54,60,11,9.69,few clouds,0.0,0.0,2020-05-29 15:51:44
211,Horn Lake,US,34.96,-90.03,73.99,72.0,73,75,6.93,broken clouds,0.0,0.0,2020-05-29 15:51:44
212,Marovoay,MG,-16.1,46.63,82.4,82.4,65,20,3.36,few clouds,0.0,0.0,2020-05-29 15:51:44
213,Umea,SE,63.83,20.26,60.8,60.01,41,66,13.87,broken clouds,0.0,0.0,2020-05-29 15:51:44
214,Marondera,ZW,-18.19,31.55,60.26,60.26,47,18,3.51,few clouds,0.0,0.0,2020-05-29 15:51:44
215,Berdigestyakh,RU,62.1,126.7,31.44,31.44,85,24,4.03,few clouds,0.0,0.0,2020-05-29 15:51:44
216,Collie,AU,-33.37,116.15,46.99,46.0,74,23,6.4,few clouds,0.0,0.0,2020-05-29 15:51:45
217,Mafinga,TZ,-7.25,35.07,76.41,76.41,41,0,6.4,clear sky,0.0,0.0,2020-05-29 15:51:45
218,Margate,GB,51.38,1.39,62.01,59.0,72,0,7.0,clear sky,0.0,0.0,2020-05-29 15:51:45
219,Constitucion,CL,-35.33,-72.42,55.04,55.04,40,26,7.36,scattered clouds,0.0,0.0,2020-05-29 15:51:45
220,Brejinho,BR,-6.19,-35.36,77.0,77.0,94,90,8.05,light rain,0.0,0.0,2020-05-29 15:51:45
221,Bandarbeyla,SO,9.49,50.81,82.08,82.08,79,70,28.48,broken clouds,0.0,0.0,2020-05-29 15:51:45
222,Bixby,US,35.94,-95.88,75.2,72.0,57,1,9.17,clear sky,0.0,0.0,2020-05-29 15:51:25
223,Rajkot,IN,22.3,70.78,84.6,84.6,73,0,17.54,clear sky,0.0,0.0,2020-05-29 15:51:45
224,Khandbari,NP,27.37,87.2,70.2,70.2,70,74,0.76,light rain,0.7,0.0,2020-05-29 15:51:46
225,Beloha,MG,-25.17,45.05,66.63,66.63,91,0,6.62,clear sky,0.0,0.0,2020-05-29 15:48:54
226,Cerrito,CO,6.84,-72.69,75.2,75.2,73,40,5.82,scattered clouds,0.0,0.0,2020-05-29 15:51:46
227,Hasaki,JP,35.73,140.83,60.8,59.0,93,40,2.24,scattered clouds,0.0,0.0,2020-05-29 15:51:46
228,Vestmannaeyjar,IS,63.44,-20.27,48.2,48.2,100,90,21.92,moderate rain,0.0,0.0,2020-05-29 15:51:46
229,Gorom-Gorom,BF,14.44,-0.24,103.21,103.21,15,100,7.52,overcast clouds,0.0,0.0,2020-05-29 15:51:46
230,Sioux Lookout,CA,50.1,-91.92,44.6,44.6,87,90,10.29,light intensity drizzle,0.0,0.0,2020-05-29 15:51:46
231,Basco,PH,20.45,121.97,84.29,84.29,78,0,5.19,clear sky,0.0,0.0,2020-05-29 15:51:46
232,Damietta,EG,31.42,31.81,71.6,71.6,64,0,14.99,clear sky,0.0,0.0,2020-05-29 15:51:46
233,Ha Giang,VN,22.83,104.98,76.75,76.75,79,1,1.7,clear sky,0.0,0.0,2020-05-29 15:51:47
234,Monrovia,LR,6.3,-10.8,82.4,82.4,83,75,5.82,light intensity drizzle,0.0,0.0,2020-05-29 15:51:47
235,Naron,ES,43.52,-8.15,73.4,73.4,69,0,8.05,clear sky,0.0,0.0,2020-05-29 15:51:47
236,Rafai,CF,4.95,23.92,80.44,80.44,76,18,2.84,light rain,0.31,0.0,2020-05-29 15:51:47
237,Los Llanos De Aridane,ES,28.66,-17.92,77.0,66.0,53,20,8.05,few clouds,0.0,0.0,2020-05-29 15:51:47
238,Geraldton,AU,-28.77,114.6,64.4,64.4,63,75,19.46,broken clouds,0.0,0.0,2020-05-29 15:51:47
239,Shache,CN,38.42,77.24,81.32,81.32,16,100,13.15,overcast clouds,0.0,0.0,2020-05-29 15:51:48
240,Haapiti,PF,-17.57,-149.87,77.0,77.0,83,52,3.36,light rain,0.87,0.0,2020-05-29 15:51:48
241,Conde,BR,-7.26,-34.91,75.2,75.2,100,75,12.75,broken clouds,0.0,0.0,2020-05-29 15:51:48
242,Arraial Do Cabo,BR,-22.97,-42.03,75.2,75.2,60,40,4.7,scattered clouds,0.0,0.0,2020-05-29 15:51:48
243,Ahipara,NZ,-35.17,173.17,56.8,56.8,90,26,3.87,scattered clouds,0.0,0.0,2020-05-29 15:48:28
244,Meulaboh,ID,4.14,96.13,80.31,80.31,83,98,3.67,overcast clouds,0.0,0.0,2020-05-29 15:51:48
245,Wakkanai,JP,45.41,141.67,51.75,51.75,87,10,23.8,clear sky,0.0,0.0,2020-05-29 15:51:48
246,Severnoye,RU,56.35,78.36,59.83,59.83,53,43,10.63,scattered clouds,0.0,0.0,2020-05-29 15:51:48
247,Ponta Do Sol,PT,32.67,-17.1,68.0,64.99,67,100,1.99,overcast clouds,0.0,0.0,2020-05-29 15:51:48
248,Auki,SB,-8.77,160.7,79.21,79.21,79,70,2.66,broken clouds,0.0,0.0,2020-05-29 15:51:49
249,Bhabua,IN,25.05,83.62,85.87,85.87,50,0,6.4,clear sky,0.0,0.0,2020-05-29 15:51:49
250,Csobanka,HU,47.65,18.96,68.0,64.99,61,99,5.99,light rain,0.75,0.0,2020-05-29 15:51:49
251,Kanniyakumari,IN,8.08,77.57,83.03,83.03,81,19,15.35,few clouds,0.0,0.0,2020-05-29 15:48:30
252,Opunake,NZ,-39.46,173.86,48.0,46.0,95,97,7.92,light rain,0.16,0.0,2020-05-29 15:51:49
253,Faanui,PF,-16.48,-151.75,81.54,81.54,78,47,18.57,scattered clouds,0.0,0.0,2020-05-29 15:51:49
254,Paamiut,GL,61.99,-49.67,35.55,35.55,85,61,21.88,broken clouds,0.0,0.0,2020-05-29 15:51:49
255,Lamu,KE,-2.27,40.9,79.14,79.14,81,100,14.43,overcast clouds,0.0,0.0,2020-05-29 15:51:50
256,Quatre Cocos,MU,-20.21,57.76,75.2,75.0,78,40,10.29,scattered clouds,0.0,0.0,2020-05-29 15:49:03
257,Miri,MY,4.41,114.01,86.0,86.0,84,75,2.24,broken clouds,0.0,0.0,2020-05-29 15:51:50
258,Scarborough,GB,54.28,-0.4,69.01,62.01,60,6,5.01,clear sky,0.0,0.0,2020-05-29 15:48:37
259,Sur,OM,22.57,59.53,92.68,92.68,55,0,12.66,clear sky,0.0,0.0,2020-05-29 15:51:50
260,Dubbo,AU,-32.25,148.62,48.2,48.2,93,0,8.05,clear sky,0.0,0.0,2020-05-29 15:48:02
261,Cap Malheureux,MU,-19.98,57.61,75.0,75.0,77,5,4.0,clear sky,0.0,0.0,2020-05-29 15:51:50
262,Grindavik,IS,63.84,-22.43,48.2,48.2,100,90,25.28,light intensity drizzle rain,0.0,0.0,2020-05-29 15:49:09
263,Labuhan,ID,-6.88,112.21,79.57,79.57,85,90,6.08,overcast clouds,0.0,0.0,2020-05-29 15:51:50
264,Cayenne,GF,4.93,-52.33,84.2,84.2,74,75,8.05,broken clouds,0.0,0.0,2020-05-29 15:51:51
265,Longkou,CN,37.65,120.33,67.6,67.6,72,56,16.46,broken clouds,0.0,0.0,2020-05-29 15:51:51
266,Tautira,PF,-17.73,-149.15,77.0,77.0,83,64,3.36,light rain,0.3,0.0,2020-05-29 15:49:07
267,Kavaratti,IN,10.57,72.64,83.66,83.66,79,100,15.59,light rain,0.92,0.0,2020-05-29 15:51:51
268,Baltay,RU,52.47,46.63,65.59,65.59,74,0,9.93,clear sky,0.0,0.0,2020-05-29 15:51:51
269,Sao Filipe,CV,14.9,-24.5,80.44,80.44,57,0,7.31,clear sky,0.0,0.0,2020-05-29 15:51:51
270,Raudeberg,NO,61.99,5.14,62.6,57.2,54,79,10.29,broken clouds,0.0,0.0,2020-05-29 15:49:09
271,Prince Rupert,CA,54.32,-130.32,51.8,51.8,71,75,2.24,broken clouds,0.0,0.0,2020-05-29 15:51:51
272,Abashiri,JP,44.02,144.27,52.0,52.0,81,7,7.0,clear sky,0.0,0.0,2020-05-29 15:49:03
273,Gornopravdinsk,RU,60.05,69.9,54.23,54.23,67,74,9.66,broken clouds,0.0,0.0,2020-05-29 15:51:52
274,Broken Hill,AU,-31.95,141.43,51.8,51.8,57,0,8.05,clear sky,0.0,0.0,2020-05-29 15:51:52
275,Bambous Virieux,MU,-20.34,57.76,75.2,75.0,78,40,10.29,scattered clouds,0.0,0.0,2020-05-29 15:51:52
276,Kupang,ID,-10.17,123.58,76.06,76.06,76,92,6.06,overcast clouds,0.0,0.0,2020-05-29 15:49:32
277,Alice Town,BS,25.72,-79.3,80.96,80.96,79,6,14.12,clear sky,0.0,0.0,2020-05-29 15:51:52
278,Mahajanga,MG,-15.72,46.32,82.4,82.4,65,20,3.36,few clouds,0.0,0.0,2020-05-29 15:51:52
279,Kuminskiy,RU,58.67,66.57,58.3,58.3,59,59,6.98,broken clouds,0.0,0.0,2020-05-29 15:51:52
280,Koslan,RU,63.46,48.9,55.2,55.2,46,67,6.24,broken clouds,0.0,0.0,2020-05-29 15:51:52
281,Guerrero Negro,MX,27.98,-114.06,70.7,70.7,65,0,9.42,clear sky,0.0,0.0,2020-05-29 15:51:53
282,Luganville,VU,-15.53,167.17,78.24,78.24,81,60,8.19,broken clouds,0.0,0.0,2020-05-29 15:48:52
283,Parkersburg,US,39.27,-81.56,78.01,75.2,73,20,8.05,few clouds,0.0,0.0,2020-05-29 15:51:53
284,Atambua,ID,-9.11,124.89,71.8,71.8,84,93,4.79,overcast clouds,0.0,0.0,2020-05-29 15:51:53
285,Namibe,AO,-15.2,12.15,80.6,80.6,69,10,16.11,clear sky,0.0,0.0,2020-05-29 15:51:53
286,Isangel,VU,-19.55,169.27,68.0,68.0,94,20,8.34,few clouds,0.0,0.0,2020-05-29 15:51:53
287,Pisco,PE,-13.7,-76.22,68.0,68.0,77,90,6.93,overcast clouds,0.0,0.0,2020-05-29 15:51:53
288,Caravelas,BR,-17.71,-39.25,78.13,78.13,58,21,9.98,few clouds,0.0,0.0,2020-05-29 15:48:45
289,Stornoway,GB,58.21,-6.39,71.01,69.8,56,89,9.17,overcast clouds,0.0,0.0,2020-05-29 15:51:53
290,Tilichiki,RU,60.47,166.1,33.62,33.62,100,100,5.59,overcast clouds,0.0,0.0,2020-05-29 15:51:54
291,Male,MV,4.17,73.51,82.4,82.4,83,90,14.99,overcast clouds,0.0,0.0,2020-05-29 15:51:54
292,Palu,ID,-0.89,119.87,76.98,76.98,80,100,3.69,overcast clouds,0.0,0.0,2020-05-29 15:51:54
293,Longyearbyen,SJ,78.22,15.64,42.8,42.8,75,75,5.82,broken clouds,0.0,0.0,2020-05-29 15:51:54
294,Fortuna,US,40.6,-124.16,55.99,55.0,93,90,3.36,overcast clouds,0.0,0.0,2020-05-29 15:51:54
295,Ikongo,MG,-21.88,47.43,67.48,67.48,86,1,2.53,clear sky,0.0,0.0,2020-05-29 15:51:54
296,Alofi,NU,-19.06,-169.92,75.2,75.2,100,0,4.7,clear sky,0.0,0.0,2020-05-29 15:51:54
297,Clyde River,CA,70.47,-68.59,24.8,24.8,85,75,3.36,broken clouds,0.0,0.0,2020-05-29 15:51:54
298,Sulzbach-Rosenberg,DE,49.5,11.75,66.2,62.6,32,20,3.36,few clouds,0.0,0.0,2020-05-29 15:51:54
299,Deputatskiy,RU,69.3,139.9,26.35,26.35,97,100,12.39,light snow,0.0,0.12,2020-05-29 15:51:55
300,Aras,ES,42.56,-2.36,87.8,87.8,22,0,6.93,clear sky,0.0,0.0,2020-05-29 15:49:05
301,Pemangkat,ID,1.17,108.97,81.32,81.32,78,62,2.77,broken clouds,0.0,0.0,2020-05-29 15:51:55
302,Nouadhibou,MR,20.93,-17.03,89.6,89.6,38,0,16.11,clear sky,0.0,0.0,2020-05-29 15:51:55
303,Tiksi,RU,71.69,128.87,29.16,29.16,97,100,11.12,overcast clouds,0.0,0.0,2020-05-29 15:51:55
304,Hay River,CA,60.82,-115.8,33.8,33.8,69,20,8.05,few clouds,0.0,0.0,2020-05-29 15:51:55
305,Thompson,CA,55.74,-97.86,41.0,41.0,48,40,11.41,scattered clouds,0.0,0.0,2020-05-29 15:51:55
306,Cidreira,BR,-30.18,-50.21,70.9,70.9,59,0,1.59,clear sky,0.0,0.0,2020-05-29 15:48:26
307,Longford,IE,53.73,-7.8,67.28,67.28,68,100,13.44,overcast clouds,0.0,0.0,2020-05-29 15:51:56
308,Saint-Joseph,RE,-21.37,55.62,73.4,61.0,78,33,6.93,scattered clouds,0.0,0.0,2020-05-29 15:51:56
309,Oistins,BB,13.07,-59.53,87.8,87.8,62,40,20.8,scattered clouds,0.0,0.0,2020-05-29 15:47:03
310,Goure,NE,13.98,10.27,105.01,105.01,9,7,5.99,clear sky,0.0,0.0,2020-05-29 15:51:56
311,Aqtobe,KZ,50.28,57.21,84.2,84.2,37,0,15.66,clear sky,0.0,0.0,2020-05-29 15:51:56
312,Tazovskiy,RU,67.47,78.7,49.89,49.89,59,100,9.89,overcast clouds,0.0,0.0,2020-05-29 15:48:38
313,Podosinovets,RU,60.28,47.07,57.67,57.67,84,100,5.08,light rain,0.41,0.0,2020-05-29 15:51:57
314,Constantine,DZ,36.37,6.61,80.6,80.6,39,40,9.17,thunderstorm,0.0,0.0,2020-05-29 15:47:18
315,Kyra,RU,49.58,111.98,40.98,40.98,88,100,5.55,light rain,0.33,0.0,2020-05-29 15:51:57
316,Ust-Maya,RU,60.42,134.53,34.47,34.47,80,79,4.76,broken clouds,0.0,0.0,2020-05-29 15:51:57
317,Ararat,AM,39.83,44.7,87.8,87.8,25,20,14.99,few clouds,0.0,0.0,2020-05-29 15:51:57
318,Ayan,RU,56.45,138.17,44.22,44.22,64,68,9.82,broken clouds,0.0,0.0,2020-05-29 15:51:57
319,Tarakan,ID,3.3,117.63,78.8,78.8,88,20,3.36,few clouds,0.0,0.0,2020-05-29 15:51:57
320,Chardara,KZ,41.25,67.97,81.91,81.91,30,0,11.99,clear sky,0.0,0.0,2020-05-29 15:51:57
321,Upata,VE,8.01,-62.4,87.01,87.01,70,85,3.0,overcast clouds,0.0,0.0,2020-05-29 15:51:58
322,Bisho,ZA,-32.85,27.44,55.83,55.83,78,100,7.85,overcast clouds,0.0,0.0,2020-05-29 15:51:58
323,Umm Kaddadah,SD,13.6,26.69,99.25,99.25,9,0,9.73,clear sky,0.0,0.0,2020-05-29 15:51:58
324,Crotone,IT,39.09,17.12,66.2,66.2,52,20,13.87,few clouds,0.0,0.0,2020-05-29 15:51:58
325,Selkirk,CA,50.14,-96.88,50.0,48.99,71,90,9.17,overcast clouds,0.0,0.0,2020-05-29 15:48:51
326,Kibala,TD,9.11,18.35,96.8,96.8,41,20,4.7,few clouds,0.0,0.0,2020-05-29 15:51:58
327,Upernavik,GL,72.79,-56.15,29.97,29.97,94,15,1.88,few clouds,0.0,0.0,2020-05-29 15:51:58
328,Hamilton,US,39.18,-84.53,75.99,73.0,69,40,13.87,scattered clouds,0.0,0.0,2020-05-29 15:51:59
329,Ambon,ID,-3.7,128.18,82.99,82.99,96,100,3.0,overcast clouds,0.0,0.0,2020-05-29 15:51:59
330,Antalaha,MG,-14.9,50.28,74.97,74.97,88,2,7.07,light rain,0.11,0.0,2020-05-29 15:51:59
331,Ondangwa,NA,-17.92,15.95,89.6,89.6,13,0,3.36,clear sky,0.0,0.0,2020-05-29 15:51:59
332,La Ronge,CA,55.1,-105.28,51.8,51.8,57,20,6.93,few clouds,0.0,0.0,2020-05-29 15:51:59
333,Bilibino,RU,68.05,166.44,37.63,37.63,76,90,4.34,overcast clouds,0.0,0.0,2020-05-29 15:51:59
334,Doctor Arroyo,MX,23.67,-100.18,72.14,72.14,39,0,3.0,clear sky,0.0,0.0,2020-05-29 15:51:59
335,Luderitz,NA,-26.65,15.16,75.2,75.2,44,0,12.75,clear sky,0.0,0.0,2020-05-29 15:51:59
336,Moerai,PF,-22.43,-151.33,76.19,76.19,72,100,13.18,overcast clouds,0.0,0.0,2020-05-29 15:48:40
337,Izumo,JP,35.37,132.77,60.8,60.8,93,40,4.7,scattered clouds,0.0,0.0,2020-05-29 15:52:00
338,Petatlan,MX,17.52,-101.27,78.8,78.8,78,5,6.62,clear sky,0.0,0.0,2020-05-29 15:52:00
339,Kalga,RU,50.93,118.9,48.36,48.36,84,66,5.7,light rain,0.26,0.0,2020-05-29 15:52:00
340,Baherden,TM,38.44,57.43,95.27,95.27,10,0,9.82,clear sky,0.0,0.0,2020-05-29 15:52:00
341,Saldanha,ZA,-33.01,17.94,62.6,62.6,93,51,4.7,broken clouds,0.0,0.0,2020-05-29 15:52:00
342,Vila Velha,BR,-20.33,-40.29,77.0,73.99,61,89,16.11,overcast clouds,0.0,0.0,2020-05-29 15:52:01
343,Mahebourg,MU,-20.41,57.7,75.2,75.2,78,40,10.29,scattered clouds,0.0,0.0,2020-05-29 15:52:01
344,Qaqortoq,GL,60.72,-46.03,42.8,42.8,60,75,6.93,shower rain,0.0,0.0,2020-05-29 15:52:01
345,Enumclaw,US,47.2,-121.99,64.99,61.0,73,82,4.45,broken clouds,0.0,0.0,2020-05-29 15:50:43
346,Huarmey,PE,-10.07,-78.15,73.72,73.72,67,7,11.52,clear sky,0.0,0.0,2020-05-29 15:52:01
347,Ushtobe,KZ,45.25,77.98,72.45,72.45,28,8,18.03,clear sky,0.0,0.0,2020-05-29 15:52:01
348,Cockburn Town,TC,21.46,-71.14,81.01,81.01,77,76,13.91,broken clouds,0.0,0.0,2020-05-29 15:47:03
349,Palmer,US,42.16,-72.33,77.0,71.01,73,75,12.75,broken clouds,0.0,0.0,2020-05-29 15:47:30
350,Urumqi,CN,43.8,87.6,73.4,73.4,16,0,4.47,clear sky,0.0,0.0,2020-05-29 15:49:44
351,Sao Joao Do Paraiso,BR,-15.31,-42.01,70.41,70.41,60,44,10.31,scattered clouds,0.0,0.0,2020-05-29 15:51:04
352,Abha,SA,18.22,42.51,86.0,78.8,50,40,8.05,scattered clouds,0.0,0.0,2020-05-29 15:52:02
353,Vila Franca Do Campo,PT,37.72,-25.43,64.4,64.4,59,40,14.99,scattered clouds,0.0,0.0,2020-05-29 15:52:02
354,Haines Junction,CA,60.75,-137.51,52.68,52.68,62,95,2.91,light rain,0.31,0.0,2020-05-29 15:52:02
355,Lerici,IT,44.08,9.91,70.0,64.99,46,11,1.01,few clouds,0.0,0.0,2020-05-29 15:52:02
356,Strezhevoy,RU,60.73,77.59,53.6,53.6,93,75,6.71,broken clouds,0.0,0.0,2020-05-29 15:52:02
357,Tlacotepec,MX,20.07,-97.87,72.64,72.64,66,41,6.6,moderate rain,1.03,0.0,2020-05-29 15:52:03
358,Seoul,KR,37.57,126.98,66.2,60.8,88,36,2.24,scattered clouds,0.0,0.0,2020-05-29 15:50:26
359,West Bay,KY,19.37,-81.42,87.8,84.0,70,20,8.05,few clouds,0.0,0.0,2020-05-29 15:52:03
360,Cairns,AU,-16.92,145.77,62.6,61.0,77,1,8.05,clear sky,0.0,0.0,2020-05-29 15:52:03
361,Mehamn,NO,71.04,27.85,42.8,42.8,87,40,19.46,shower rain,0.0,0.0,2020-05-29 15:52:03
362,Rangia,IN,26.47,91.63,78.8,78.8,88,75,3.36,mist,0.0,0.0,2020-05-29 15:52:03
363,Havre-Saint-Pierre,CA,50.23,-63.6,60.8,60.8,67,90,8.05,overcast clouds,0.0,0.0,2020-05-29 15:52:03
364,Ambilobe,MG,-13.2,49.05,75.06,75.06,85,20,0.85,few clouds,0.0,0.0,2020-05-29 15:52:03
365,Kieta,PG,-6.22,155.63,78.85,78.85,79,100,2.57,overcast clouds,0.0,0.0,2020-05-29 15:52:03
366,Aitape,PG,-3.14,142.35,78.71,78.71,83,95,3.91,overcast clouds,0.0,0.0,2020-05-29 15:49:06
367,Yankton,US,42.87,-97.4,62.01,60.8,55,1,9.17,clear sky,0.0,0.0,2020-05-29 15:52:04
368,Ostrovnoy,RU,68.05,39.51,44.08,44.08,74,79,4.14,broken clouds,0.0,0.0,2020-05-29 15:52:04
369,Manokwari,ID,-0.87,134.08,80.26,80.26,71,100,3.56,overcast clouds,0.0,0.0,2020-05-29 15:48:48
370,Pershotravneve,UA,51.39,28.87,56.19,56.19,87,97,13.33,overcast clouds,0.0,0.0,2020-05-29 15:52:04
371,Juan Lacaze,UY,-34.43,-57.44,69.01,66.2,72,100,2.24,overcast clouds,0.0,0.0,2020-05-29 15:52:04
372,Agadez,NE,19.75,10.25,103.21,103.21,9,23,2.71,few clouds,0.0,0.0,2020-05-29 15:52:04
373,Necochea,AR,-38.55,-58.74,60.01,60.01,84,100,8.99,overcast clouds,0.0,0.0,2020-05-29 15:48:17
374,Richards Bay,ZA,-28.78,32.04,67.62,67.62,52,24,6.35,few clouds,0.0,0.0,2020-05-29 15:52:04
375,Dillon,US,34.42,-79.37,82.4,73.4,100,75,4.7,broken clouds,0.0,0.0,2020-05-29 15:52:04
376,Roros,NO,62.57,11.38,55.4,55.4,47,84,11.41,broken clouds,0.0,0.0,2020-05-29 15:52:05
377,Kendari,ID,-3.94,122.5,77.5,77.5,89,100,1.1,light rain,0.5,0.0,2020-05-29 15:52:05
378,Svetlogorsk,BY,52.63,29.73,57.72,57.72,84,99,14.83,overcast clouds,0.0,0.0,2020-05-29 15:52:05
379,Muriwai Beach,NZ,-36.82,174.45,55.99,55.0,98,63,7.07,broken clouds,0.0,0.0,2020-05-29 15:52:05
380,Valparaiso,CL,-33.04,-71.63,57.2,53.6,87,90,9.17,overcast clouds,0.0,0.0,2020-05-29 15:49:03
381,Baiao,BR,-2.79,-49.67,89.08,89.08,54,97,2.3,overcast clouds,0.0,0.0,2020-05-29 15:52:05
382,Le Port,RE,-20.94,55.29,73.4,61.0,69,36,11.41,scattered clouds,0.0,0.0,2020-05-29 15:52:05
383,Korla,CN,41.76,86.15,74.35,74.35,19,1,3.4,clear sky,0.0,0.0,2020-05-29 15:52:05
384,Itaueira,BR,-7.6,-43.03,83.95,83.95,58,86,11.18,overcast clouds,0.0,0.0,2020-05-29 15:52:05
385,Palmares Do Sul,BR,-30.26,-50.51,71.76,71.76,56,0,5.03,clear sky,0.0,0.0,2020-05-29 15:52:06
386,Rawson,AR,-43.3,-65.1,52.23,52.23,67,98,15.12,light rain,0.24,0.0,2020-05-29 15:48:29
387,Plettenberg Bay,ZA,-34.05,23.37,58.28,58.28,83,100,7.18,overcast clouds,0.0,0.0,2020-05-29 15:52:06
388,Trebinje,BA,42.71,18.34,68.0,68.0,40,40,10.29,thunderstorm,0.0,0.0,2020-05-29 15:48:23
389,Vostok,RU,46.49,135.88,51.98,51.98,78,3,5.64,clear sky,0.0,0.0,2020-05-29 15:52:06
390,Lasem,ID,-6.69,111.45,79.45,79.45,83,30,5.75,scattered clouds,0.0,0.0,2020-05-29 15:52:06
391,Ouesso,CG,1.61,16.05,73.38,73.38,96,100,3.22,light rain,0.17,0.0,2020-05-29 15:52:06
392,Ranfurly,NZ,-45.13,170.1,46.0,46.0,68,12,1.92,few clouds,0.0,0.0,2020-05-29 15:52:07
393,Garoua,CM,9.3,13.4,98.6,98.6,39,20,6.93,few clouds,0.0,0.0,2020-05-29 15:52:07
394,Iquique,CL,-20.22,-70.14,71.6,71.6,56,27,8.05,scattered clouds,0.0,0.0,2020-05-29 15:51:48
395,Gold Coast,AU,-28.0,153.43,63.0,57.0,82,40,10.29,scattered clouds,0.0,0.0,2020-05-29 15:51:43
396,Union,US,40.63,-74.27,82.0,75.99,69,90,8.05,overcast clouds,0.0,0.0,2020-05-29 15:52:07
397,Olafsvik,IS,64.89,-23.71,48.02,48.02,92,100,22.95,light rain,0.24,0.0,2020-05-29 15:52:07
398,Yerbogachen,RU,61.28,108.01,38.52,38.52,71,10,3.87,clear sky,0.0,0.0,2020-05-29 15:52:07
399,Mount Gambier,AU,-37.83,140.77,50.0,50.0,76,0,9.17,clear sky,0.0,0.0,2020-05-29 15:52:07
400,Terrasini,IT,38.15,13.08,71.6,71.6,53,0,12.75,clear sky,0.0,0.0,2020-05-29 15:52:07
401,Puerto Carreno,CO,6.19,-67.49,82.4,82.4,78,75,2.24,broken clouds,0.0,0.0,2020-05-29 15:52:08
402,Gorontalo,ID,0.54,123.06,76.05,76.05,87,99,2.37,overcast clouds,0.0,0.0,2020-05-29 15:52:08
403,Chumikan,RU,54.72,135.31,43.23,43.23,96,97,1.63,overcast clouds,0.0,0.0,2020-05-29 15:52:08
404,Gombong,ID,-7.61,109.51,78.17,78.17,89,71,3.91,broken clouds,0.0,0.0,2020-05-29 15:52:08
405,Susuman,RU,62.78,148.17,35.02,35.02,92,100,6.29,snow,0.0,0.72,2020-05-29 15:52:08
406,Gigmoto,PH,13.78,124.39,80.37,80.37,81,24,5.99,few clouds,0.0,0.0,2020-05-29 15:48:36
407,Faya,SA,18.39,42.45,86.0,78.8,50,40,8.05,scattered clouds,0.0,0.0,2020-05-29 15:52:08
408,Tooele,US,40.53,-112.3,80.6,78.8,39,1,3.36,clear sky,0.0,0.0,2020-05-29 15:52:09
409,Bethal,ZA,-26.46,29.47,59.0,59.0,44,37,4.85,scattered clouds,0.0,0.0,2020-05-29 15:52:09
410,Nadym,RU,65.53,72.52,48.34,48.34,70,100,15.97,overcast clouds,0.0,0.0,2020-05-29 15:52:09
411,Point Pleasant,US,40.08,-74.07,82.0,78.8,83,90,6.93,overcast clouds,0.0,0.0,2020-05-29 15:52:09
412,Bud,US,39.45,-86.18,72.0,68.0,88,90,3.36,overcast clouds,0.0,0.0,2020-05-29 15:52:09
413,Novyy Nekouz,RU,57.9,38.07,55.8,55.8,92,100,6.67,overcast clouds,0.0,0.0,2020-05-29 15:52:09
414,Guanica,PR,17.97,-66.91,88.0,84.99,55,98,7.0,overcast clouds,0.0,0.0,2020-05-29 15:52:09
415,Banos,EC,-1.4,-78.42,77.0,62.6,72,75,1.63,broken clouds,0.0,0.0,2020-05-29 15:52:11
416,Nishihara,JP,26.18,127.76,77.0,75.2,69,75,13.87,broken clouds,0.0,0.0,2020-05-29 15:52:11
417,Cheremnoye,RU,53.17,83.21,64.4,64.4,31,68,8.95,light rain,0.18,0.0,2020-05-29 15:52:11
418,Hobyo,SO,5.35,48.53,82.24,82.24,71,91,28.63,overcast clouds,0.0,0.0,2020-05-29 15:48:39
419,Bermeo,ES,43.42,-2.72,82.0,75.99,61,0,10.29,clear sky,0.0,0.0,2020-05-29 15:52:11
420,Fairmont,US,39.49,-80.14,78.01,72.0,68,92,12.03,overcast clouds,0.0,0.0,2020-05-29 15:52:11
421,Sakaiminato,JP,35.55,133.23,60.8,60.8,93,40,4.7,scattered clouds,0.0,0.0,2020-05-29 15:52:11
422,Ak-Dovurak,RU,51.18,90.6,51.82,51.82,42,1,3.04,clear sky,0.0,0.0,2020-05-29 15:52:11
423,Gainesville,US,29.65,-82.32,88.0,80.6,74,1,9.17,clear sky,0.0,0.0,2020-05-29 15:52:11
424,Husavik,IS,66.04,-17.34,60.8,60.8,51,100,31.09,overcast clouds,0.0,0.0,2020-05-29 15:52:12
425,Linhares,BR,-19.39,-40.07,75.29,75.29,65,62,7.25,broken clouds,0.0,0.0,2020-05-29 15:52:12
426,Kostomuksha,RU,64.57,30.58,56.23,56.23,44,99,8.01,overcast clouds,0.0,0.0,2020-05-29 15:52:12
427,Westport,US,41.14,-73.36,71.01,69.01,88,90,6.93,overcast clouds,0.0,0.0,2020-05-29 15:49:49
428,Rio Brilhante,BR,-21.8,-54.55,77.14,77.14,42,9,4.45,clear sky,0.0,0.0,2020-05-29 15:52:12
429,Anamur,TR,36.08,32.84,73.4,73.4,53,20,9.17,few clouds,0.0,0.0,2020-05-29 15:52:12
430,Ler,SS,8.3,30.14,89.13,89.13,44,99,1.79,overcast clouds,0.0,0.0,2020-05-29 15:52:12
431,Cabo San Lucas,MX,22.89,-109.91,80.01,78.8,57,5,3.36,clear sky,0.0,0.0,2020-05-29 15:52:12
432,Nenjiang,CN,49.18,125.22,65.95,65.95,54,100,8.72,overcast clouds,0.0,0.0,2020-05-29 15:52:12
433,Mahe,IN,11.7,75.53,77.0,77.0,94,75,3.36,mist,0.0,0.0,2020-05-29 15:52:13
434,Ewa Beach,US,21.32,-158.01,75.2,71.6,78,1,4.7,clear sky,0.0,0.0,2020-05-29 15:52:13
435,Sosua,DO,19.77,-70.52,89.01,86.0,66,20,13.87,few clouds,0.0,0.0,2020-05-29 15:52:13
436,Kiunga,PG,-6.12,141.29,74.3,74.3,98,93,1.86,overcast clouds,0.0,0.0,2020-05-29 15:52:13
437,Porto Novo,BJ,6.5,2.6,86.0,86.0,74,20,6.93,few clouds,0.0,0.0,2020-05-29 15:52:13
438,Bouza,NE,14.42,6.04,105.71,105.71,9,5,7.45,clear sky,0.0,0.0,2020-05-29 15:52:13
439,Mahibadhoo,MV,3.78,72.97,81.7,81.7,82,100,19.77,overcast clouds,0.0,0.0,2020-05-29 15:52:13
440,Bongandanga,CD,1.5,21.05,72.54,72.54,98,100,5.46,light rain,0.7,0.0,2020-05-29 15:52:13
441,Majene,ID,-3.54,118.97,80.42,80.42,81,100,11.88,overcast clouds,0.0,0.0,2020-05-29 15:48:18
442,Bucerias,MX,20.75,-105.33,81.0,78.8,69,90,6.93,overcast clouds,0.0,0.0,2020-05-29 15:52:14
443,Stuttgart,DE,48.78,9.18,71.01,64.4,39,17,11.41,few clouds,0.0,0.0,2020-05-29 15:50:11
444,Aranos,NA,-24.13,19.12,63.3,63.3,25,0,4.65,clear sky,0.0,0.0,2020-05-29 15:52:14
445,Atasu,KZ,48.68,71.64,69.8,69.8,30,0,7.05,clear sky,0.0,0.0,2020-05-29 15:52:14
446,Grajau,BR,-5.82,-46.14,85.53,85.53,67,99,7.9,light rain,0.12,0.0,2020-05-29 15:52:14
447,Tangzhai,CN,34.43,116.59,67.98,67.98,56,11,9.6,few clouds,0.0,0.0,2020-05-29 15:52:14
448,Qandala,SO,11.47,49.87,92.39,92.39,54,73,5.03,broken clouds,0.0,0.0,2020-05-29 15:52:14
449,Olga,RU,43.74,135.29,57.45,57.45,63,0,5.64,clear sky,0.0,0.0,2020-05-29 15:52:14
450,Krasnoselkup,RU,65.7,82.47,52.5,52.5,64,100,7.81,overcast clouds,0.0,0.0,2020-05-29 15:48:45
451,El Tigre,VE,8.89,-64.25,85.82,85.82,51,100,11.01,overcast clouds,0.0,0.0,2020-05-29 15:51:14
452,Biak,ID,-0.91,122.88,78.91,78.91,76,90,5.3,overcast clouds,0.0,0.0,2020-05-29 15:52:15
453,Minas,UY,-34.38,-55.24,66.2,66.0,68,63,5.97,broken clouds,0.0,0.0,2020-05-29 15:52:15
454,Herat,AF,34.5,62.0,84.2,84.2,20,0,9.17,clear sky,0.0,0.0,2020-05-29 15:52:15
455,Pacific Grove,US,36.62,-121.92,57.99,55.0,95,92,10.22,overcast clouds,0.0,0.0,2020-05-29 15:52:15
456,Obo,CF,5.4,26.49,77.58,77.58,87,94,2.77,overcast clouds,0.0,0.0,2020-05-29 15:49:13
457,Sretensk,RU,52.25,117.71,53.33,53.33,45,99,6.4,overcast clouds,0.0,0.0,2020-05-29 15:52:15
458,Cosala,MX,24.41,-106.69,78.01,78.01,76,49,1.99,scattered clouds,0.0,0.0,2020-05-29 15:52:16
459,Hungund,IN,16.07,76.05,94.15,94.15,32,91,19.15,overcast clouds,0.0,0.0,2020-05-29 15:52:16
460,Yulara,AU,-25.24,130.99,60.8,60.8,35,60,6.93,broken clouds,0.0,0.0,2020-05-29 15:52:16
461,Bonwapitse,BW,-23.08,26.7,61.65,61.65,25,0,4.7,clear sky,0.0,0.0,2020-05-29 15:52:16
462,Malakal,SS,9.53,31.66,95.61,95.61,31,100,1.86,overcast clouds,0.0,0.0,2020-05-29 15:52:16
463,Manacapuru,BR,-3.3,-60.62,84.2,84.2,79,75,6.93,light rain,0.0,0.0,2020-05-29 15:52:16
464,Anekal,IN,12.7,77.7,71.6,71.6,100,75,8.05,thunderstorm with rain,0.0,0.0,2020-05-29 15:52:16
465,Matadi,CD,-5.82,13.45,86.94,86.94,63,43,4.14,scattered clouds,0.0,0.0,2020-05-29 15:52:16
466,Wewak,PG,-3.55,143.63,79.74,79.74,81,86,1.25,overcast clouds,0.0,0.0,2020-05-29 15:52:17
467,Grand Gaube,MU,-20.01,57.66,75.0,75.0,77,8,4.0,clear sky,0.0,0.0,2020-05-29 15:52:17
468,Haimen,CN,23.19,116.61,77.0,77.0,94,90,6.71,mist,0.0,0.0,2020-05-29 15:52:17
469,San Policarpo,PH,12.18,125.51,82.74,82.74,82,21,7.2,light rain,0.15,0.0,2020-05-29 15:52:17
470,Sinnamary,GF,5.38,-52.95,74.68,74.68,92,100,1.57,moderate rain,1.27,0.0,2020-05-29 15:52:17
471,Yumen,CN,40.28,97.2,61.29,61.29,25,27,8.05,scattered clouds,0.0,0.0,2020-05-29 15:52:17
472,Vilyuysk,RU,63.76,121.62,35.49,35.49,80,95,5.19,overcast clouds,0.0,0.0,2020-05-29 15:52:17
473,Ullal,IN,12.8,74.85,86.0,86.0,79,20,6.93,few clouds,0.0,0.0,2020-05-29 15:52:18
474,Araouane,ML,18.9,-3.53,104.5,104.5,13,59,2.15,broken clouds,0.0,0.0,2020-05-29 15:49:18
475,Kodinsk,RU,58.69,99.18,44.98,44.98,58,18,3.36,few clouds,0.0,0.0,2020-05-29 15:48:53
476,Sao Paulo De Olivenca,BR,-3.38,-68.87,75.63,75.63,90,98,2.35,overcast clouds,0.0,0.0,2020-05-29 15:52:18
477,Kismayo,SO,-0.36,42.55,80.15,80.15,77,87,12.5,overcast clouds,0.0,0.0,2020-05-29 15:52:18
478,Pochutla,MX,15.74,-96.47,87.01,84.2,66,40,4.79,scattered clouds,0.0,0.0,2020-05-29 15:52:18
479,Paveh,IR,35.04,46.36,73.85,73.85,23,83,5.64,broken clouds,0.0,0.0,2020-05-29 15:52:18
480,Skibotn,NO,69.39,20.27,42.8,42.8,93,75,3.36,broken clouds,0.0,0.0,2020-05-29 15:52:18
481,Bridlington,GB,54.08,-0.19,68.0,62.01,45,13,9.17,few clouds,0.0,0.0,2020-05-29 15:52:19
482,Aswan,EG,24.09,32.91,91.6,91.6,14,0,19.95,clear sky,0.0,0.0,2020-05-29 15:52:19
483,Huaidian,CN,33.43,115.03,68.43,68.43,63,91,9.1,overcast clouds,0.0,0.0,2020-05-29 15:52:19
484,Banda Aceh,ID,5.56,95.32,81.59,81.59,79,100,1.59,overcast clouds,0.0,0.0,2020-05-29 15:49:20
485,Kirakira,SB,-10.45,161.92,79.3,79.3,82,89,5.66,moderate rain,1.41,0.0,2020-05-29 15:52:19
486,Sungairaya,ID,0.7,108.9,80.01,80.01,83,22,3.27,few clouds,0.0,0.0,2020-05-29 15:52:19
487,Great Bend,US,38.36,-98.76,75.0,69.8,46,1,6.93,clear sky,0.0,0.0,2020-05-29 15:52:19
488,Hami,CN,42.8,93.45,71.91,71.91,19,2,6.08,clear sky,0.0,0.0,2020-05-29 15:52:19
489,Jining,CN,35.41,116.58,70.83,70.83,56,6,11.77,clear sky,0.0,0.0,2020-05-29 15:52:20
490,Menongue,AO,-14.66,17.69,72.21,72.21,32,0,4.36,clear sky,0.0,0.0,2020-05-29 15:52:20
491,Ascension,US,30.22,-90.9,80.01,78.01,74,75,4.43,broken clouds,0.0,0.0,2020-05-29 15:52:20
492,High Level,CA,58.52,-117.14,51.8,51.8,66,20,8.05,few clouds,0.0,0.0,2020-05-29 15:52:20
493,Mayo,US,38.89,-76.51,81.0,73.4,88,90,12.75,light rain,0.25,0.0,2020-05-29 15:49:03
494,Egvekinot,RU,66.32,-179.17,31.87,31.87,100,100,6.33,snow,0.0,2.1,2020-05-29 15:52:20
495,Dunedin,NZ,-45.87,170.5,46.99,46.0,72,9,4.97,clear sky,0.0,0.0,2020-05-29 15:48:28
496,Pastavy,BY,55.12,26.83,57.45,57.45,71,90,9.57,overcast clouds,0.0,0.0,2020-05-29 15:52:21
497,Khandyga,RU,62.67,135.6,32.65,32.65,86,73,5.06,broken clouds,0.0,0.0,2020-05-29 15:52:21
498,Batemans Bay,AU,-35.72,150.18,42.01,42.01,100,0,4.16,clear sky,0.0,0.0,2020-05-29 15:52:21
499,Dalvik,IS,65.97,-18.53,60.8,60.8,51,100,31.09,overcast clouds,0.0,0.0,2020-05-29 15:52:21
500,Mount Isa,AU,-20.73,139.5,60.8,60.8,29,0,6.93,clear sky,0.0,0.0,2020-05-29 15:52:21
501,Rubiataba,BR,-15.16,-49.8,77.74,77.74,48,0,4.21,clear sky,0.0,0.0,2020-05-29 15:52:22
502,Kungurtug,RU,50.6,97.52,34.11,34.11,86,46,2.51,scattered clouds,0.0,0.0,2020-05-29 15:52:22
503,Ilulissat,GL,69.22,-51.1,33.8,33.8,59,75,5.82,broken clouds,0.0,0.0,2020-05-29 15:52:22
504,Coahuayana,MX,18.73,-103.68,77.0,77.0,44,20,4.32,smoke,0.0,0.0,2020-05-29 15:52:22
505,Ugoofaaru,MV,5.67,73.0,79.2,79.2,88,100,19.64,moderate rain,1.55,0.0,2020-05-29 15:49:08
506,Churapcha,RU,62.0,132.43,32.63,32.63,87,21,5.91,few clouds,0.0,0.0,2020-05-29 15:52:22
507,Fengrun,CN,39.83,118.12,66.96,66.96,66,49,6.87,scattered clouds,0.0,0.0,2020-05-29 15:52:22
508,Santa Marta,CO,11.24,-74.2,87.8,87.8,70,75,6.93,broken clouds,0.0,0.0,2020-05-29 15:50:08
509,Coquimbo,CL,-29.95,-71.34,62.6,62.6,63,100,6.93,overcast clouds,0.0,0.0,2020-05-29 15:47:42
510,Henties Bay,NA,-22.12,14.28,64.0,64.0,76,0,9.84,clear sky,0.0,0.0,2020-05-29 15:48:57
511,Kalengwa,ZM,-13.47,25.0,70.29,70.29,42,0,3.87,clear sky,0.0,0.0,2020-05-29 15:52:23
512,Namatanai,PG,-3.67,152.43,80.17,80.17,78,100,3.83,light rain,0.15,0.0,2020-05-29 15:52:23
513,Waingapu,ID,-9.66,120.26,77.85,77.85,82,66,4.29,broken clouds,0.0,0.0,2020-05-29 15:52:23
514,Millinocket,US,45.66,-68.71,78.8,78.8,65,1,6.93,clear sky,0.0,0.0,2020-05-29 15:48:37
515,Teahupoo,PF,-17.83,-149.27,77.0,77.0,83,63,3.36,light rain,0.27,0.0,2020-05-29 15:52:23
516,Tucuma,BR,-0.18,-50.05,82.33,82.33,83,92,4.18,light rain,0.77,0.0,2020-05-29 15:47:44
517,Isiro,CD,2.77,27.62,71.58,71.58,97,95,3.76,heavy intensity rain,5.07,0.0,2020-05-29 15:52:23
518,Dombas,NO,62.07,9.12,51.24,51.24,55,27,3.67,scattered clouds,0.0,0.0,2020-05-29 15:52:23
519,Jinchang,CN,38.5,102.17,57.16,57.16,39,4,7.99,clear sky,0.0,0.0,2020-05-29 15:52:23
520,Fort Frances,CA,48.6,-93.4,53.01,50.0,76,90,10.29,overcast clouds,0.0,0.0,2020-05-29 15:52:24
521,Urrao,CO,6.32,-76.13,73.4,64.99,73,20,0.72,haze,0.0,0.0,2020-05-29 15:52:24
522,Deqing,CN,30.54,119.96,69.01,66.0,91,100,1.99,heavy intensity rain,4.97,0.0,2020-05-29 15:52:24
523,George,ZA,-33.96,22.46,57.2,57.2,93,90,3.36,overcast clouds,0.0,0.0,2020-05-29 15:52:24
524,Payo,ID,-3.75,103.64,75.29,75.29,95,84,2.57,broken clouds,0.0,0.0,2020-05-29 15:49:13
525,Progreso,MX,21.28,-89.67,87.8,87.01,70,75,9.17,broken clouds,0.0,0.0,2020-05-29 15:52:24
526,Santa Lucia,ES,27.91,-15.54,77.0,73.0,57,20,24.16,few clouds,0.0,0.0,2020-05-29 15:50:40
527,Narsaq,GL,60.92,-46.05,42.8,42.8,60,75,6.93,shower rain,0.0,0.0,2020-05-29 15:52:24
528,Nacala,MZ,-14.54,40.67,75.4,75.4,86,2,7.99,clear sky,0.0,0.0,2020-05-29 15:52:24
529,Okha,RU,53.57,142.95,35.55,35.55,93,67,12.66,broken clouds,0.0,0.0,2020-05-29 15:52:25
530,Willmar,US,45.12,-95.04,60.8,57.2,51,40,14.99,scattered clouds,0.0,0.0,2020-05-29 15:51:42
531,Isla Mujeres,MX,21.23,-86.73,86.0,84.99,74,75,6.93,broken clouds,0.0,0.0,2020-05-29 15:52:25
532,Kruisfontein,ZA,-34.0,24.73,54.88,54.88,84,100,11.74,overcast clouds,0.0,0.0,2020-05-29 15:52:25
533,Houma,US,29.6,-90.72,84.0,80.6,78,75,4.7,broken clouds,0.0,0.0,2020-05-29 15:52:25
534,Kamenka,RU,51.32,42.77,68.86,68.86,75,98,11.9,overcast clouds,0.0,0.0,2020-05-29 15:52:25
535,Lasa,IT,46.62,10.7,77.0,55.4,23,40,10.29,scattered clouds,0.0,0.0,2020-05-29 15:52:25
536,Jiuquan,CN,39.74,98.52,64.69,64.69,25,60,9.35,broken clouds,0.0,0.0,2020-05-29 15:52:26
537,Missoula,US,47.02,-113.8,62.01,60.01,63,1,3.62,clear sky,0.0,0.0,2020-05-29 15:50:14
538,Sumbe,AO,-11.21,13.84,80.6,80.6,74,91,8.05,overcast clouds,0.0,0.0,2020-05-29 15:52:26
539,Agucadoura,PT,41.43,-8.78,86.0,69.8,77,0,10.29,clear sky,0.0,0.0,2020-05-29 15:52:26
540,Sechura,PE,-5.56,-80.82,78.42,78.42,59,0,7.23,clear sky,0.0,0.0,2020-05-29 15:52:26
541,Kailua,US,21.4,-157.74,82.4,71.01,58,40,6.93,scattered clouds,0.0,0.0,2020-05-29 15:52:26
542,Abonnema,NG,4.71,6.79,84.2,84.2,70,75,9.17,broken clouds,0.0,0.0,2020-05-29 15:52:27
543,Nemuro,JP,43.32,145.57,46.81,46.81,84,7,10.58,clear sky,0.0,0.0,2020-05-29 15:48:20
544,Bartica,GY,6.4,-58.62,75.2,75.2,100,75,6.93,heavy intensity rain,0.0,0.0,2020-05-29 15:52:27
545,Srednekolymsk,RU,67.45,153.68,46.49,46.49,53,0,11.27,clear sky,0.0,0.0,2020-05-29 15:52:27
546,Lompoc,US,34.64,-120.46,60.8,55.4,82,90,8.05,overcast clouds,0.0,0.0,2020-05-29 15:52:09
547,Akureyri,IS,65.68,-18.09,60.8,60.8,51,100,31.09,overcast clouds,0.0,0.0,2020-05-29 15:52:27
548,Waipawa,NZ,-41.41,175.52,53.01,50.0,81,98,4.38,overcast clouds,0.0,0.0,2020-05-29 15:48:35
549,Sabinopolis,BR,-18.67,-43.08,70.38,70.38,56,2,4.21,clear sky,0.0,0.0,2020-05-29 15:48:13
550,Chokwe,MZ,-24.53,32.98,71.62,71.62,23,0,1.95,clear sky,0.0,0.0,2020-05-29 15:52:28
551,Somerset East,ZA,-32.72,25.59,55.29,55.29,80,99,3.89,overcast clouds,0.0,0.0,2020-05-29 15:52:28
552,Goma,CD,-1.68,29.22,68.63,68.63,76,53,3.74,moderate rain,1.19,0.0,2020-05-29 15:52:28
553,Fairbanks,US,64.84,-147.72,60.8,55.0,62,1,6.93,clear sky,0.0,0.0,2020-05-29 15:52:28
554,Salym,RU,60.06,71.48,53.67,53.67,71,98,12.35,overcast clouds,0.0,0.0,2020-05-29 15:52:28
555,Eyl,SO,7.98,49.82,83.8,83.8,73,89,25.46,overcast clouds,0.0,0.0,2020-05-29 15:52:28
556,Ravar,IR,31.27,56.81,86.0,86.0,13,0,4.61,clear sky,0.0,0.0,2020-05-29 15:52:29
557,Ardahan,TR,41.11,42.7,57.49,57.49,59,0,9.08,clear sky,0.0,0.0,2020-05-29 15:52:29
558,Two Hills,CA,53.72,-111.75,52.84,52.84,73,100,7.11,overcast clouds,0.0,0.0,2020-05-29 15:52:29
559,Fergus Falls,US,46.28,-96.08,57.0,55.4,62,40,13.87,scattered clouds,0.0,0.0,2020-05-29 15:52:29
